$GPGGA,014521.00,3444.1382727,N,13550.4441494,E,4,12,1.01,74.9111,M,34.9866,M,0.0,0000*49
$GPGGA,014522.00,3444.1382740,N,13550.4441490,E,4,12,1.01,74.9135,M,34.9866,M,0.0,0000*49
$GPGGA,014523.00,3444.1382736,N,13550.4441479,E,4,12,1.01,74.9128,M,34.9866,M,0.0,0000*42
$GPGGA,014524.00,3444.1382750,N,13550.4441476,E,4,12,1.01,74.9098,M,34.9866,M,0.0,0000*40
$GPGGA,014525.00,3444.1382733,N,13550.4441463,E,4,12,1.01,74.9136,M,34.9866,M,0.0,0000*45
$GPGGA,014526.00,3444.1382730,N,13550.4441488,E,4,12,1.01,74.9142,M,34.9866,M,0.0,0000*43
$GPGGA,014527.00,3444.1382750,N,13550.4441492,E,4,12,1.01,74.9055,M,34.9866,M,0.0,0000*48
$GPGGA,014528.00,3444.1382738,N,13550.4441484,E,4,12,1.02,74.9129,M,34.9866,M,0.0,0000*47
$GPGGA,014529.00,3444.1382744,N,13550.4441474,E,4,12,1.02,74.9110,M,34.9866,M,0.0,0000*48
$GPGGA,014530.00,3444.1382725,N,13550.4441492,E,4,12,1.02,74.9160,M,34.9866,M,0.0,0000*48
$GPGGA,014531.00,3444.1382739,N,13550.4441477,E,4,12,1.02,74.9142,M,34.9866,M,0.0,0000*4F
$GPGGA,014532.00,3444.1382736,N,13550.4441480,E,4,12,1.02,74.9106,M,34.9866,M,0.0,0000*4B
$GPGGA,014533.00,3444.1382732,N,13550.4441488,E,4,12,1.02,74.9154,M,34.9866,M,0.0,0000*41
$GPGGA,014534.00,3444.1382743,N,13550.4441477,E,4,12,1.02,74.9105,M,34.9866,M,0.0,0000*44
$GPGGA,014535.00,3444.1382742,N,13550.4441485,E,4,12,1.02,74.9143,M,34.9866,M,0.0,0000*4B
$GPGGA,014536.00,3444.1382729,N,13550.4441484,E,4,12,1.02,74.9171,M,34.9866,M,0.0,0000*45
$GPGGA,014537.00,3444.1382728,N,13550.4441495,E,4,12,1.02,74.9167,M,34.9866,M,0.0,0000*42
$GPGGA,014538.00,3444.1382739,N,13550.4441471,E,4,12,1.02,74.9130,M,34.9866,M,0.0,0000*45
$GPGGA,014539.00,3444.1382727,N,13550.4441470,E,4,12,1.02,74.9118,M,34.9866,M,0.0,0000*40
$GPGGA,014540.00,3444.1382726,N,13550.4441483,E,4,12,1.02,74.9153,M,34.9866,M,0.0,0000*4C
$GPGGA,014541.00,3444.1382714,N,13550.4441491,E,4,12,1.02,74.9198,M,34.9866,M,0.0,0000*48
$GPGGA,014542.00,3444.1382729,N,13550.4441491,E,4,12,1.02,74.9192,M,34.9866,M,0.0,0000*4F
$GPGGA,014543.00,3444.1382727,N,13550.4441478,E,4,12,1.02,74.9141,M,34.9866,M,0.0,0000*49
$GPGGA,014544.00,3444.1382733,N,13550.4441466,E,4,12,1.02,74.9155,M,34.9866,M,0.0,0000*41
$GPGGA,014545.00,3444.1382733,N,13550.4441461,E,4,12,1.02,74.9128,M,34.9866,M,0.0,0000*4D
$GPGGA,014546.00,3444.1382726,N,13550.4441485,E,4,12,1.02,74.9175,M,34.9866,M,0.0,0000*48
$GPGGA,014547.00,3444.1382733,N,13550.4441455,E,4,12,1.02,74.9158,M,34.9866,M,0.0,0000*4F
$GPGGA,014548.00,3444.1382721,N,13550.4441486,E,4,12,1.02,74.9172,M,34.9866,M,0.0,0000*45
$GPGGA,014549.00,3444.1382722,N,13550.4441471,E,4,12,1.02,74.9128,M,34.9866,M,0.0,0000*40
$GPGGA,014550.00,3444.1382731,N,13550.4441492,E,4,12,1.02,74.9152,M,34.9866,M,0.0,0000*4A
$GPGGA,014551.00,3444.1382715,N,13550.4441467,E,4,12,1.02,74.9165,M,34.9866,M,0.0,0000*43
$GPGGA,014552.00,3444.1382720,N,13550.4441471,E,4,12,1.02,74.9168,M,34.9866,M,0.0,0000*4C
$GPGGA,014553.00,3444.1382718,N,13550.4441477,E,4,12,1.02,74.9128,M,34.9866,M,0.0,0000*44
$GPGGA,014554.00,3444.1382722,N,13550.4441480,E,4,12,1.02,74.9164,M,34.9866,M,0.0,0000*4A
$GPGGA,014555.00,3444.1382728,N,13550.4441460,E,4,12,1.02,74.9180,M,34.9866,M,0.0,0000*45
$GPGGA,014556.00,3444.1382732,N,13550.4441487,E,4,12,1.02,74.9130,M,34.9866,M,0.0,0000*4F
$GPGGA,014557.00,3444.1382719,N,13550.4441469,E,4,12,1.02,74.9167,M,34.9866,M,0.0,0000*45
$GPGGA,014558.00,3444.1382724,N,13550.4441484,E,4,12,1.02,74.9175,M,34.9866,M,0.0,0000*44
$GPGGA,014559.00,3444.1382724,N,13550.4441490,E,4,12,1.02,74.9155,M,34.9866,M,0.0,0000*42
$GPGGA,014600.00,3444.1382730,N,13550.4441487,E,4,12,1.02,74.9156,M,34.9866,M,0.0,0000*4D
$GPGGA,014601.00,3444.1382731,N,13550.4441490,E,4,12,1.02,74.9137,M,34.9866,M,0.0,0000*4C
$GPGGA,014602.00,3444.1382721,N,13550.4441480,E,4,12,1.02,74.9140,M,34.9866,M,0.0,0000*4F
$GPGGA,014603.00,3444.1382733,N,13550.4441474,E,4,12,1.02,74.9139,M,34.9866,M,0.0,0000*48
$GPGGA,014604.00,3444.1382738,N,13550.4441462,E,4,12,1.02,74.9143,M,34.9866,M,0.0,0000*4E
$GPGGA,014605.00,3444.1382740,N,13550.4441485,E,4,12,1.02,74.9106,M,34.9866,M,0.0,0000*48
$GPGGA,014606.00,3444.1382724,N,13550.4441475,E,4,12,1.02,74.9134,M,34.9866,M,0.0,0000*47
$GPGGA,014607.00,3444.1382756,N,13550.4441371,E,4,12,1.02,74.9137,M,34.9866,M,0.0,0000*43
$GPGGA,014608.00,3444.1383107,N,13550.4441172,E,4,12,1.02,74.9279,M,34.9866,M,0.0,0000*47
$GPGGA,014609.00,3444.1383292,N,13550.4441040,E,4,12,1.02,74.9977,M,34.9866,M,0.0,0000*4C
$GPGGA,014610.00,3444.1384047,N,13550.4441803,E,4,11,1.10,75.0570,M,34.9866,M,0.0,0000*45
$GPGGA,014611.00,3444.1384476,N,13550.4442710,E,4,11,1.10,75.1631,M,34.9866,M,0.0,0000*4B
$GPGGA,014612.00,3444.1386369,N,13550.4443787,E,4,11,1.10,75.1563,M,34.9866,M,0.0,0000*48
$GPGGA,014613.00,3444.1388340,N,13550.4444130,E,4,11,1.17,75.1225,M,34.9866,M,0.0,0000*43
$GPGGA,014614.00,3444.1389605,N,13550.4445254,E,4,11,1.48,75.0301,M,34.9866,M,0.0,0000*4D
$GPGGA,014615.00,3444.1388935,N,13550.4444759,E,4,11,1.48,75.2271,M,34.9866,M,0.0,0000*4C
$GPGGA,014616.00,3444.1386777,N,13550.4443843,E,4,10,1.95,74.9856,M,34.9866,M,0.0,0000*4E
$GPGGA,014617.00,3444.1386262,N,13550.4443924,E,4,10,1.63,74.9208,M,34.9866,M,0.0,0000*46
$GPGGA,014618.00,3444.1386540,N,13550.4443397,E,4,10,1.63,74.9212,M,34.9866,M,0.0,0000*47
$GPGGA,014619.00,3444.1386860,N,13550.4443207,E,4,10,1.63,74.9222,M,34.9866,M,0.0,0000*42
$GPGGA,014620.00,3444.1386872,N,13550.4443246,E,4,10,1.61,74.9307,M,34.9866,M,0.0,0000*4A
$GPGGA,014621.00,3444.1386798,N,13550.4443262,E,4,10,1.61,74.9246,M,34.9866,M,0.0,0000*42
$GPGGA,014622.00,3444.1386689,N,13550.4443246,E,4,12,1.26,74.9316,M,34.9866,M,0.0,0000*43
$GPGGA,014623.00,3444.1386618,N,13550.4443455,E,4,12,1.23,74.9294,M,34.9866,M,0.0,0000*40
$GPGGA,014624.00,3444.1386592,N,13550.4443434,E,4,12,1.05,74.9334,M,34.9866,M,0.0,0000*4E
$GPGGA,014625.00,3444.1386537,N,13550.4443495,E,4,12,1.05,74.9368,M,34.9866,M,0.0,0000*42
$GPGGA,014626.00,3444.1386589,N,13550.4443434,E,4,12,1.05,74.9318,M,34.9866,M,0.0,0000*48
$GPGGA,014627.00,3444.1386574,N,13550.4443437,E,4,12,1.05,74.9389,M,34.9866,M,0.0,0000*40
$GPGGA,014628.00,3444.1386547,N,13550.4443435,E,4,12,1.05,74.9387,M,34.9866,M,0.0,0000*43
$GPGGA,014629.00,3444.1386596,N,13550.4443432,E,4,12,1.05,74.9379,M,34.9866,M,0.0,0000*48
$GPGGA,014630.00,3444.1386620,N,13550.4443405,E,4,12,1.05,74.9338,M,34.9866,M,0.0,0000*4F
$GPGGA,014631.00,3444.1386828,N,13550.4443344,E,4,12,1.05,74.9351,M,34.9866,M,0.0,0000*45
$GPGGA,014632.00,3444.1386876,N,13550.4443275,E,4,12,1.05,74.9350,M,34.9866,M,0.0,0000*4F
$GPGGA,014633.00,3444.1388392,N,13550.4444784,E,4,12,1.05,74.9741,M,34.9866,M,0.0,0000*49
$GPGGA,014634.00,3444.1389737,N,13550.4447069,E,4,12,1.02,74.9419,M,34.9866,M,0.0,0000*4A
$GPGGA,014635.00,3444.1389711,N,13550.4447915,E,4,11,1.13,74.9819,M,34.9866,M,0.0,0000*42
$GPGGA,014636.00,3444.1389719,N,13550.4448016,E,4,10,1.62,74.9348,M,34.9866,M,0.0,0000*44
$GPGGA,014637.00,3444.1389810,N,13550.4448048,E,4,10,1.62,74.9472,M,34.9866,M,0.0,0000*46
$GPGGA,014638.00,3444.1389623,N,13550.4448315,E,4,11,1.60,74.9415,M,34.9866,M,0.0,0000*4E
$GPGGA,014641.00,3444.1385673,N,13550.4445135,E,1,13,0.80,74.1180,M,34.9866,M,,*63
$GPGGA,014640.00,3444.1389586,N,13550.4449187,E,4,10,1.66,74.9504,M,34.9866,M,0.0,0000*43
$GPGGA,014641.00,3444.1389515,N,13550.4449065,E,4,10,1.66,74.9477,M,34.9866,M,0.0,0000*40
$GPGGA,014642.00,3444.1389493,N,13550.4448945,E,4,10,1.75,74.9461,M,34.9866,M,0.0,0000*43
$GPGGA,014643.00,3444.1389399,N,13550.4449342,E,4,10,1.75,74.9570,M,34.9866,M,0.0,0000*42
$GPGGA,014644.00,3444.1389593,N,13550.4449518,E,4,10,1.75,74.9433,M,34.9866,M,0.0,0000*46
$GPGGA,014645.00,3444.1389526,N,13550.4449312,E,4,10,1.75,74.9512,M,34.9866,M,0.0,0000*47
$GPGGA,014646.00,3444.1389531,N,13550.4448818,E,4,10,1.75,74.9474,M,34.9866,M,0.0,0000*43
$GPGGA,014647.00,3444.1389521,N,13550.4448997,E,4,10,1.75,74.9516,M,34.9866,M,0.0,0000*40
$GPGGA,014648.00,3444.1389567,N,13550.4448975,E,4,10,1.75,74.9408,M,34.9866,M,0.0,0000*4F
$GPGGA,014649.00,3444.1389538,N,13550.4448937,E,4,10,1.75,74.9564,M,34.9866,M,0.0,0000*49
$GPGGA,014650.00,3444.1389556,N,13550.4448916,E,4,10,1.75,74.9531,M,34.9866,M,0.0,0000*4A
$GPGGA,014651.00,3444.1389561,N,13550.4448904,E,4,10,1.75,74.9565,M,34.9866,M,0.0,0000*4D
$GPGGA,014652.00,3444.1389553,N,13550.4448909,E,4,10,1.75,74.9525,M,34.9866,M,0.0,0000*46
$GPGGA,014653.00,3444.1389567,N,13550.4448919,E,4,10,1.75,74.9549,M,34.9866,M,0.0,0000*4B
$GPGGA,014654.00,3444.1389561,N,13550.4448971,E,
$GPGGA,014705.00,3444.1389537,N,13550.4448957,E,4,10,1.75,74.9656,M,34.9866,M,0.0,0000*4B
$GPGGA,014706.00,3444.1389556,N,13550.4448897,E,4,10,1.75,74.9506,M,34.9866,M,0.0,0000*44
$GPGGA,014707.00,3444.1389567,N,13550.4448874,E,4,10,1.75,74.9494,M,34.9866,M,0.0,0000*40
$GPGGA,014708.00,3444.1389575,N,13550.4448899,E,4,10,1.75,74.9469,M,34.9866,M,0.0,0000*4D
$GPGGA,014709.00,3444.1389535,N,13550.4448920,E,4,10,1.75,74.9530,M,34.9866,M,0.0,0000*46
$GPGGA,014710.00,3444.1389516,N,13550.4448895,E,4,10,1.75,74.9553,M,34.9866,M,0.0,0000*45
$GPGGA,014711.00,3444.1389539,N,13550.4448832,E,4,10,1.75,74.9511,M,34.9866,M,0.0,0000*42
$GPGGA,014712.00,3444.1389548,N,13550.4448798,E,4,10,1.75,74.9490,M,34.9866,M,0.0,0000*40
$GPGGA,014713.00,3444.1389553,N,13550.4448865,E,4,10,1.75,74.9482,M,34.9866,M,0.0,0000*45
$GPGGA,014714.00,3444.1389557,N,13550.4448882,E,4,10,1.75,74.9540,M,34.9866,M,0.0,0000*40
$GPGGA,014715.00,3444.1389399,N,13550.4449336,E,4,10,1.74,74.9541,M,34.9866,M,0.0,0000*40
$GPGGA,014716.00,3444.1389600,N,13550.4449423,E,4,10,1.74,74.9480,M,34.9866,M,0.0,0000*49
$GPGGA,014717.00,3444.1389594,N,13550.4449237,E,4,10,1.74,74.9663,M,34.9866,M,0.0,0000*4A
$GPGGA,014718.00,3444.1389597,N,13550.4449130,E,4,10,1.74,74.9645,M,34.9866,M,0.0,0000*46
$GPGGA,014719.00,3444.1389526,N,13550.4448834,E,4,10,1.74,74.9479,M,34.9866,M,0.0,0000*4C
$GPGGA,014720.00,3444.1389580,N,13550.4448969,E,4,10,1.73,74.9635,M,34.9866,M,0.0,0000*4E
$GPGGA,014721.00,3444.1389589,N,13550.4448977,E,4,10,1.73,74.9667,M,34.9866,M,0.0,0000*4E
$GPGGA,014722.00,3444.1389493,N,13550.4448938,E,4,10,1.73,74.9637,M,34.9866,M,0.0,0000*49
$GPGGA,014723.00,3444.1389483,N,13550.4448857,E,4,10,1.73,74.9477,M,34.9866,M,0.0,0000*47
$GPGGA,014726.00,3444.1385793,N,13550.4445199,E,1,13,0.80,74.0561,M,34.9866,M,,*60
$GPGGA,014727.00,3444.1385866,N,13550.4445153,E,1,13,0.80,74.0110,M,34.9866,M,,*60
$GPGGA,014726.00,3444.1389508,N,13550.4448918,E,4,10,1.73,74.9539,M,34.9866,M,0.0,0000*41
$GPGGA,014727.00,3444.1389481,N,13550.4448909,E,4,10,1.73,74.9573,M,34.9866,M,0.0,0000*4E
$GPGGA,014728.00,3444.1389509,N,13550.4448905,E,4,10,1.73,74.9518,M,34.9866,M,0.0,0000*41
$GPGGA,014729.00,3444.1389517,N,13550.4448885,E,4,10,1.73,74.9499,M,34.9866,M,0.0,0000*4E
$GPGGA,014730.00,3444.1389549,N,13550.4448933,E,4,10,1.73,74.9597,M,34.9866,M,0.0,0000*4E
$GPGGA,014731.00,3444.1389597,N,13550.4448931,E,4,10,1.73,74.9578,M,34.9866,M,0.0,0000*4F
$GPGGA,014732.00,3444.1389565,N,13550.4448948,E,4,10,1.74,74.9623,M,34.9866,M,0.0,0000*45
$GPGGA,014735.00,3444.1385916,N,13550.4445195,E,1,12,0.84,74.0191,M,34.9866,M,,*63
$GPGGA,014734.00,3444.1389550,N,13550.4448910,E,4,10,1.75,74.9517,M,34.9866,M,0.0,0000*4D
$GPGGA,014737.00,3444.1385835,N,13550.4445264,E,1,12,0.84,74.0416,M,34.9866,M,,*66
