$GPGGA,015952.00,3444.1274315,N,13550.4435344,E,4,18,0.77,75.2297,M,34.9868,M,0.0,0000*47
$GPGGA,015953.00,3444.1274313,N,13550.4435304,E,4,18,0.77,75.2271,M,34.9868,M,0.0,0000*4C
$GPGGA,015954.00,3444.1274293,N,13550.4435330,E,4,18,0.77,75.2292,M,34.9868,M,0.0,0000*48
$GPGGA,015955.00,3444.1274275,N,13550.4435329,E,4,18,0.77,75.2282,M,34.9868,M,0.0,0000*48
$GPGGA,015956.00,3444.1274301,N,13550.4435321,E,4,18,0.77,75.2260,M,34.9868,M,0.0,0000*4D
$GPGGA,015959.00,3444.1268627,N,13550.4431711,E,1,18,0.60,73.3632,M,34.9867,M,,*6B
$GPGGA,015958.00,3444.1274339,N,13550.4435430,E,4,18,0.77,75.2269,M,34.9868,M,0.0,0000*46
$GPGGA,015959.00,3444.1274314,N,13550.4435357,E,4,18,0.77,75.2305,M,34.9868,M,0.0,0000*45
$GPGGA,020000.00,3444.1274310,N,13550.4435336,E,4,18,0.77,75.2256,M,34.9868,M,0.0,0000*42
$GPGGA,020001.00,3444.1274323,N,13550.4435358,E,4,18,0.77,75.2234,M,34.9868,M,0.0,0000*4F
$GPGGA,020002.00,3444.1274331,N,13550.4435365,E,4,18,0.77,75.2260,M,34.9868,M,0.0,0000*40
$GPGGA,020003.00,3444.1274317,N,13550.4435357,E,4,18,0.77,75.2276,M,34.9868,M,0.0,0000*43
$GPGGA,020004.00,3444.1274318,N,13550.4435360,E,4,18,0.77,75.2270,M,34.9868,M,0.0,0000*49
$GPGGA,020007.00,3444.1269745,N,13550.4433965,E,1,18,0.60,73.4000,M,34.9868,M,,*6B
$GPGGA,020006.00,3444.1274318,N,13550.4435340,E,4,18,0.77,75.2259,M,34.9868,M,0.0,0000*42
$GPGGA,020009.00,3444.1269975,N,13550.4433369,E,1,18,0.60,73.4000,M,34.9868,M,,*6E
$GPGGA,020008.00,3444.1274311,N,13550.4435364,E,4,18,0.77,75.2274,M,34.9868,M,0.0,0000*4C
$GPGGA,020009.00,3444.1274578,N,13550.4434771,E,4,18,0.77,75.2228,M,34.9867,M,0.0,0000*43
$GPGGA,020010.00,3444.1275973,N,13550.4433602,E,4,18,0.77,75.2737,M,34.9867,M,0.0,0000*44
$GPGGA,020011.00,3444.1276100,N,13550.4432156,E,4,18,0.77,75.2945,M,34.9867,M,0.0,0000*46
$GPGGA,020012.00,3444.1276408,N,13550.4430833,E,4,18,0.77,75.2907,M,34.9867,M,0.0,0000*46
$GPGGA,020013.00,3444.1275679,N,13550.4428493,E,4,18,0.77,75.2962,M,34.9867,M,0.0,0000*4C
$GPGGA,020014.00,3444.1275571,N,13550.4426821,E,4,18,0.77,75.2735,M,34.9867,M,0.0,0000*47
$GPGGA,020015.00,3444.1275643,N,13550.4424516,E,4,17,0.77,75.2909,M,34.9867,M,0.0,0000*41
$GPGGA,020016.00,3444.1276607,N,13550.4424855,E,4,17,0.78,75.2421,M,34.9867,M,0.0,0000*43
$GPGGA,020017.00,3444.1276074,N,13550.4424151,E,4,17,0.78,75.2732,M,34.9867,M,0.0,0000*4C
$GPGGA,020018.00,3444.1275679,N,13550.4421507,E,4,17,0.78,75.2528,M,34.9867,M,0.0,0000*40
$GPGGA,020019.00,3444.1276727,N,13550.4419601,E,4,17,0.79,75.2177,M,34.9867,M,0.0,0000*49
$GPGGA,020020.00,3444.1276142,N,13550.4416821,E,4,17,0.79,75.2641,M,34.9867,M,0.0,0000*47
$GPGGA,020021.00,3444.1275922,N,13550.4412781,E,4,17,0.79,75.3069,M,34.9867,M,0.0,0000*47
$GPGGA,020022.00,3444.1276106,N,13550.4407380,E,4,17,0.79,75.3284,M,34.9867,M,0.0,0000*49
$GPGGA,020025.00,3444.1271890,N,13550.4384864,E,1,19,0.58,73.3437,M,34.9866,M,,*6D
$GPGGA,020026.00,3444.1271663,N,13550.4376705,E,1,19,0.58,73.3424,M,34.9866,M,,*6B
$GPGGA,020027.00,3444.1271852,N,13550.4368325,E,1,18,0.60,73.3276,M,34.9865,M,,*67
$GPGGA,020028.00,3444.1271845,N,13550.4360653,E,1,18,0.60,73.3238,M,34.9865,M,,*68
$GPGGA,020027.00,3444.1276231,N,13550.4369702,E,4,17,0.79,75.2380,M,34.9865,M,0.0,0000*4C
$GPGGA,020028.00,3444.1276231,N,13550.4362031,E,4,17,0.79,75.2298,M,34.9865,M,0.0,0000*47
$GPGGA,020029.00,3444.1276228,N,13550.4353744,E,4,17,0.79,75.2019,M,34.9865,M,0.0,0000*42
$GPGGA,020030.00,3444.1276275,N,13550.4345723,E,4,17,0.79,75.2001,M,34.9864,M,0.0,0000*4C
$GPGGA,020033.00,3444.1271835,N,13550.4320965,E,1,19,0.58,73.2555,M,34.9864,M,,*6D
$GPGGA,020032.00,3444.1276480,N,13550.4329887,E,4,17,0.79,75.1831,M,34.9864,M,0.0,0000*41
$GPGGA,020033.00,3444.1276243,N,13550.4322383,E,4,17,0.79,75.1720,M,34.9864,M,0.0,0000*42
$GPGGA,020034.00,3444.1276269,N,13550.4315084,E,4,17,0.79,75.1675,M,34.9863,M,0.0,0000*4B
$GPGGA,020035.00,3444.1276098,N,13550.4307538,E,4,17,0.79,75.1882,M,34.9863,M,0.0,0000*41
$GPGGA,020038.00,3444.1270759,N,13550.4281153,E,1,18,0.60,73.2527,M,34.9862,M,,*6C
$GPGGA,020039.00,3444.1271356,N,13550.4272421,E,1,18,0.60,73.2177,M,34.9862,M,,*6A
$GPGGA,020038.00,3444.1275169,N,13550.4282602,E,4,17,0.79,75.1795,M,34.9862,M,0.0,0000*4E
$GPGGA,020039.00,3444.1275779,N,13550.4273884,E,4,17,0.81,75.1444,M,34.9862,M,0.0,0000*4E
$GPGGA,020040.00,3444.1276291,N,13550.4265771,E,4,17,0.81,75.1283,M,34.9862,M,0.0,0000*4F
$GPGGA,020041.00,3444.1275259,N,13550.4257717,E,4,16,0.81,75.1300,M,34.9861,M,0.0,0000*40
$GPGGA,020044.00,3444.1271015,N,13550.4230439,E,1,18,0.60,73.2581,M,34.9861,M,,*65
$GPGGA,020045.00,3444.1271227,N,13550.4222398,E,1,18,0.60,73.2408,M,34.9860,M,,*69
$GPGGA,020044.00,3444.1275366,N,13550.4232030,E,4,16,0.81,75.1456,M,34.9861,M,0.0,0000*4D
$GPGGA,020045.00,3444.1275585,N,13550.4223983,E,4,16,0.81,75.1365,M,34.9860,M,0.0,0000*40
$GPGGA,020046.00,3444.1275796,N,13550.4216255,E,4,17,0.81,75.1124,M,34.9860,M,0.0,0000*43
$GPGGA,020047.00,3444.1275972,N,13550.4208626,E,4,17,0.81,75.1152,M,34.9860,M,0.0,0000*48
$GPGGA,020048.00,3444.1276664,N,13550.4200430,E,4,17,0.81,75.1190,M,34.9859,M,0.0,0000*45
$GPGGA,020049.00,3444.1276699,N,13550.4190996,E,4,17,0.80,75.1009,M,34.9859,M,0.0,0000*4D
$GPGGA,020050.00,3444.1276255,N,13550.4180676,E,4,16,0.80,75.1628,M,34.9859,M,0.0,0000*45
$GPGGA,020053.00,3444.1271659,N,13550.4155730,E,1,18,0.66,73.3442,M,34.9858,M,,*64
$GPGGA,020052.00,3444.1276581,N,13550.4165315,E,4,16,0.81,75.2198,M,34.9858,M,0.0,0000*4D
$GPGGA,020053.00,3444.1276028,N,13550.4157348,E,4,16,0.81,75.2425,M,34.9858,M,0.0,0000*40
$GPGGA,020054.00,3444.1276269,N,13550.4149320,E,4,16,0.81,75.2161,M,34.9858,M,0.0,0000*44
$GPGGA,020055.00,3444.1276532,N,13550.4140959,E,4,15,0.81,75.2067,M,34.9857,M,0.0,0000*4A
$GPGGA,020056.00,3444.1276725,N,13550.4133021,E,4,07,0.96,75.2052,M,34.9857,M,0.0,0000*4C
$GPGGA,020057.00,3444.1276977,N,13550.4124331,E,4,07,1.53,75.2100,M,34.9857,M,0.0,0000*4E
$GPGGA,020100.00,3444.1275487,N,13550.4102139,E,1,17,0.77,74.2385,M,34.9856,M,,*60
$GPGGA,020059.00,3444.1276707,N,13550.4107227,E,5,07,1.53,75.1603,M,34.9856,M,0.0,0000*49
$GPGGA,020102.00,3444.1275747,N,13550.4087068,E,1,17,0.77,74.2480,M,34.9856,M,,*66
$GPGGA,020101.00,3444.1275589,N,13550.4092855,E,5,15,0.96,75.2341,M,34.9856,M,0.0,0000*4B
$GPGGA,020102.00,3444.1276369,N,13550.4084916,E,5,15,0.96,75.2226,M,34.9856,M,0.0,0000*42
$GPGGA,020103.00,3444.1276868,N,13550.4077178,E,5,15,0.95,75.1773,M,34.9855,M,0.0,0000*43
$GPGGA,020104.00,3444.1277353,N,13550.4068861,E,5,16,0.95,75.1595,M,34.9855,M,0.0,0000*40
$GPGGA,020107.00,3444.1275460,N,13550.4049654,E,1,19,0.59,74.1164,M,34.9854,M,,*62
$GPGGA,020106.00,3444.1276941,N,13550.4053394,E,5,16,0.95,75.1286,M,34.9854,M,0.0,0000*47
$GPGGA,020107.00,3444.1276159,N,13550.4047589,E,5,16,0.94,75.1020,M,34.9854,M,0.0,0000*47
$GPGGA,020108.00,3444.1275031,N,13550.4043376,E,5,18,0.83,75.0714,M,34.9854,M,0.0,0000*4F
$GPGGA,020109.00,3444.1274567,N,13550.4041513,E,5,18,0.83,75.0453,M,34.9854,M,0.0,0000*4E
$GPGGA,020110.00,3444.1274196,N,13550.4041219,E,5,18,0.83,75.0280,M,34.9854,M,0.0,0000*49
$GPGGA,020111.00,3444.1274069,N,13550.4040728,E,5,18,0.83,75.0171,M,34.9854,M,0.0,0000*42
$GPGGA,020114.00,3444.1273561,N,13550.4041248,E,1,19,0.59,74.0282,M,34.9854,M,,*6D
$GPGGA,020113.00,3444.1274295,N,13550.4039911,E,5,18,0.83,75.0197,M,34.9854,M,0.0,0000*43
$GPGGA,020114.00,3444.1274256,N,13550.4039196,E,5,18,0.83,75.0226,M,34.9854,M,0.0,0000*45
$GPGGA,020115.00,3444.1273994,N,13550.4039423,E,5,18,0.83,75.0338,M,34.9854,M,0.0,0000*43
