$GPGGA,015016.00,3444.1371859,N,13550.4432319,E,4,15,0.82,74.9035,M,34.9866,M,0.0,0000*4F
$GPGGA,015017.00,3444.1371856,N,13550.4432291,E,4,15,0.81,74.9044,M,34.9866,M,0.0,0000*45
$GPGGA,015018.00,3444.1371851,N,13550.4432307,E,4,15,0.81,74.9047,M,34.9866,M,0.0,0000*40
$GPGGA,015019.00,3444.1371868,N,13550.4432303,E,4,15,0.81,74.9032,M,34.9866,M,0.0,0000*4D
$GPGGA,015020.00,3444.1371856,N,13550.4432290,E,4,15,0.81,74.9054,M,34.9866,M,0.0,0000*41
$GPGGA,015021.00,3444.1371895,N,13550.4432316,E,4,15,0.81,74.9017,M,34.9866,M,0.0,0000*47
$GPGGA,015022.00,3444.1371878,N,13550.4432277,E,4,15,0.81,74.9037,M,34.9866,M,0.0,0000*43
$GPGGA,015023.00,3444.1371890,N,13550.4432310,E,4,15,0.81,74.9024,M,34.9866,M,0.0,0000*46
$GPGGA,015024.00,3444.1371830,N,13550.4432291,E,4,15,0.81,74.9109,M,34.9866,M,0.0,0000*4D
$GPGGA,015025.00,3444.1371882,N,13550.4432318,E,4,15,0.81,74.9073,M,34.9866,M,0.0,0000*49
$GPGGA,015026.00,3444.1371861,N,13550.4432286,E,4,15,0.82,74.9013,M,34.9866,M,0.0,0000*44
$GPGGA,015027.00,3444.1371850,N,13550.4432295,E,4,15,0.81,74.8981,M,34.9866,M,0.0,0000*45
$GPGGA,015028.00,3444.1371838,N,13550.4432279,E,4,15,0.81,74.9010,M,34.9866,M,0.0,0000*46
$GPGGA,015029.00,3444.1371855,N,13550.4432279,E,4,15,0.81,74.8982,M,34.9866,M,0.0,0000*4F
$GPGGA,015030.00,3444.1371853,N,13550.4432298,E,4,15,0.81,74.9017,M,34.9866,M,0.0,0000*4A
$GPGGA,015031.00,3444.1371863,N,13550.4432308,E,4,15,0.81,74.8994,M,34.9866,M,0.0,0000*43
$GPGGA,015032.00,3444.1371850,N,13550.4432287,E,4,15,0.81,74.9065,M,34.9866,M,0.0,0000*40
$GPGGA,015033.00,3444.1371852,N,13550.4432288,E,4,15,0.81,74.9002,M,34.9866,M,0.0,0000*4D
$GPGGA,015034.00,3444.1371838,N,13550.4432294,E,4,15,0.81,74.9050,M,34.9866,M,0.0,0000*4C
$GPGGA,015035.00,3444.1371846,N,13550.4432295,E,4,15,0.81,74.9001,M,34.9866,M,0.0,0000*41
$GPGGA,015036.00,3444.1371874,N,13550.4432303,E,4,15,0.81,74.9034,M,34.9866,M,0.0,0000*4B
$GPGGA,015037.00,3444.1371900,N,13550.4432314,E,4,15,0.81,74.9051,M,34.9866,M,0.0,0000*4D
$GPGGA,015038.00,3444.1371866,N,13550.4432319,E,4,15,0.81,74.9059,M,34.9866,M,0.0,0000*46
$GPGGA,015039.00,3444.1371918,N,13550.4432316,E,4,15,0.81,74.9060,M,34.9866,M,0.0,0000*4A
$GPGGA,015040.00,3444.1372017,N,13550.4432369,E,4,15,0.81,74.9038,M,34.9866,M,0.0,0000*44
$GPGGA,015041.00,3444.1371718,N,13550.4433592,E,4,15,0.81,75.0046,M,34.9866,M,0.0,0000*4C
$GPGGA,015042.00,3444.1371080,N,13550.4436193,E,4,14,0.82,75.0104,M,34.9866,M,0.0,0000*4C
$GPGGA,015043.00,3444.1369535,N,13550.4437668,E,4,14,0.85,75.0057,M,34.9866,M,0.0,0000*4D
$GPGGA,015044.00,3444.1369021,N,13550.4438233,E,4,13,0.85,75.0275,M,34.9866,M,0.0,0000*4A
$GPGGA,015045.00,3444.1368847,N,13550.4439132,E,4,13,0.85,75.0243,M,34.9866,M,0.0,0000*44
$GPGGA,015046.00,3444.1367260,N,13550.4438173,E,4,13,0.85,75.1367,M,34.9866,M,0.0,0000*45
$GPGGA,015047.00,3444.1366253,N,13550.4436576,E,4,13,0.85,75.1402,M,34.9866,M,0.0,0000*4E
$GPGGA,015048.00,3444.1364238,N,13550.4436575,E,4,14,0.84,75.1071,M,34.9866,M,0.0,0000*4B
$GPGGA,015049.00,3444.1363843,N,13550.4435394,E,4,15,0.83,75.1342,M,34.9866,M,0.0,0000*44
$GPGGA,015050.00,3444.1361096,N,13550.4435581,E,4,15,0.81,75.2243,M,34.9866,M,0.0,0000*4D
$GPGGA,015051.00,3444.1357439,N,13550.4438536,E,4,15,0.82,75.1449,M,34.9866,M,0.0,0000*45
$GPGGA,015054.00,3444.1344415,N,13550.4441269,E,1,17,0.65,74.2323,M,34.9867,M,,*67
$GPGGA,015053.00,3444.1352385,N,13550.4443953,E,4,15,0.81,75.1541,M,34.9867,M,0.0,0000*4A
$GPGGA,015054.00,3444.1349264,N,13550.4444849,E,4,15,0.82,75.1545,M,34.9867,M,0.0,0000*43
$GPGGA,015055.00,3444.1347369,N,13550.4446348,E,4,15,0.82,75.1485,M,34.9867,M,0.0,0000*45
$GPGGA,015056.00,3444.1345304,N,13550.4448514,E,4,15,0.82,75.1447,M,34.9867,M,0.0,0000*40
$GPGGA,015057.00,3444.1342594,N,13550.4451577,E,4,16,0.81,75.1512,M,34.9867,M,0.0,0000*45
$GPGGA,015058.00,3444.1339935,N,13550.4455161,E,4,18,0.77,75.1207,M,34.9867,M,0.0,0000*42
$GPGGA,015059.00,3444.1339588,N,13550.4459789,E,4,18,0.76,75.1163,M,34.9867,M,0.0,0000*45
$GPGGA,015100.00,3444.1341165,N,13550.4460375,E,4,17,0.76,75.0919,M,34.9867,M,0.0,0000*46
$GPGGA,015103.00,3444.1334590,N,13550.4457009,E,1,17,0.66,74.0389,M,34.9867,M,,*6D
$GPGGA,015102.00,3444.1339414,N,13550.4460916,E,4,17,0.79,75.0462,M,34.9867,M,0.0,0000*49
$GPGGA,015103.00,3444.1339328,N,13550.4460633,E,4,16,0.79,75.0468,M,34.9867,M,0.0,0000*43
$GPGGA,015104.00,3444.1339577,N,13550.4460637,E,4,16,0.80,75.0089,M,34.9867,M,0.0,0000*41
$GPGGA,015105.00,3444.1339904,N,13550.4460109,E,4,16,0.78,75.0161,M,34.9867,M,0.0,0000*42
$GPGGA,015106.00,3444.1340121,N,13550.4460969,E,4,16,0.79,75.0010,M,34.9867,M,0.0,0000*48
$GPGGA,015107.00,3444.1340219,N,13550.4460848,E,4,16,0.79,74.9210,M,34.9867,M,0.0,0000*49
$GPGGA,015108.00,3444.1340332,N,13550.4461347,E,4,15,0.79,74.9188,M,34.9867,M,0.0,0000*4A
$GPGGA,015109.00,3444.1340261,N,13550.4461520,E,4,15,0.82,74.9233,M,34.9867,M,0.0,0000*4C
$GPGGA,015110.00,3444.1340593,N,13550.4461444,E,4,15,0.82,74.9167,M,34.9867,M,0.0,0000*4F
$GPGGA,015111.00,3444.1340999,N,13550.4461620,E,4,15,0.82,74.9281,M,34.9867,M,0.0,0000*43
$GPGGA,015112.00,3444.1341531,N,13550.4461572,E,4,16,0.80,74.9322,M,34.9867,M,0.0,0000*42
$GPGGA,015113.00,3444.1341264,N,13550.4461508,E,4,16,0.80,74.9299,M,34.9867,M,0.0,0000*48
$GPGGA,015114.00,3444.1341913,N,13550.4461683,E,4,16,0.80,74.9282,M,34.9867,M,0.0,0000*4E
$GPGGA,015115.00,3444.1342059,N,13550.4461794,E,4,16,0.80,74.9335,M,34.9867,M,0.0,0000*41
$GPGGA,015118.00,3444.1337996,N,13550.4458361,E,1,17,0.66,73.7603,M,34.9867,M,,*6B
$GPGGA,015117.00,3444.1342583,N,13550.4461790,E,4,17,0.78,74.9354,M,34.9867,M,0.0,0000*44
$GPGGA,015120.00,3444.1337774,N,13550.4458365,E,1,17,0.66,73.7474,M,34.9867,M,,*64
$GPGGA,015119.00,3444.1342453,N,13550.4462032,E,4,17,0.78,74.9400,M,34.9867,M,0.0,0000*4C
$GPGGA,015120.00,3444.1342210,N,13550.4462004,E,4,17,0.78,74.9325,M,34.9867,M,0.0,0000*42
$GPGGA,015121.00,3444.1342080,N,13550.4461947,E,4,17,0.78,74.9307,M,34.9867,M,0.0,0000*45
$GPGGA,015122.00,3444.1342050,N,13550.4461897,E,4,17,0.78,74.9361,M,34.9867,M,0.0,0000*47
