$GPGGA,021116.00,3444.1240542,N,13550.3973947,E,4,18,0.80,74.9426,M,34.9852,M,0.0,0000*4D
$GPGGA,021117.00,3444.1240529,N,13550.3973975,E,4,18,0.80,74.9447,M,34.9852,M,0.0,0000*47
$GPGGA,021118.00,3444.1240519,N,13550.3973946,E,4,18,0.80,74.9453,M,34.9852,M,0.0,0000*4E
$GPGGA,021119.00,3444.1240512,N,13550.3973938,E,4,18,0.80,74.9464,M,34.9852,M,0.0,0000*49
$GPGGA,021120.00,3444.1240532,N,13550.3973946,E,4,18,0.80,74.9412,M,34.9852,M,0.0,0000*49
$GPGGA,021121.00,3444.1240509,N,13550.3973931,E,4,18,0.80,74.9480,M,34.9852,M,0.0,0000*4B
$GPGGA,021122.00,3444.1240520,N,13550.3973944,E,4,18,0.80,74.9456,M,34.9852,M,0.0,0000*4A
$GPGGA,021123.00,3444.1240578,N,13550.3973944,E,4,18,0.80,74.9455,M,34.9852,M,0.0,0000*45
$GPGGA,021124.00,3444.1240574,N,13550.3973937,E,4,18,0.80,74.9457,M,34.9852,M,0.0,0000*48
$GPGGA,021125.00,3444.1240578,N,13550.3973935,E,4,18,0.80,74.9424,M,34.9852,M,0.0,0000*43
$GPGGA,021126.00,3444.1240568,N,13550.3973941,E,4,18,0.80,74.9430,M,34.9852,M,0.0,0000*47
$GPGGA,021127.00,3444.1240521,N,13550.3973914,E,4,18,0.80,74.9487,M,34.9852,M,0.0,0000*47
$GPGGA,021128.00,3444.1240569,N,13550.3973932,E,4,18,0.80,74.9389,M,34.9852,M,0.0,0000*49
$GPGGA,021129.00,3444.1240518,N,13550.3973926,E,4,18,0.80,74.9479,M,34.9852,M,0.0,0000*43
$GPGGA,021130.00,3444.1240507,N,13550.3973924,E,4,18,0.80,74.9469,M,34.9852,M,0.0,0000*46
$GPGGA,021131.00,3444.1240471,N,13550.3973936,E,4,18,0.80,74.9452,M,34.9852,M,0.0,0000*4C
$GPGGA,021134.00,3444.1237659,N,13550.3972208,E,1,18,0.62,73.1206,M,34.9852,M,,*69
$GPGGA,021133.00,3444.1240538,N,13550.3973942,E,4,18,0.80,74.9462,M,34.9852,M,0.0,0000*42
$GPGGA,021134.00,3444.1240528,N,13550.3973925,E,4,18,0.80,74.9492,M,34.9852,M,0.0,0000*4A
$GPGGA,021137.00,3444.1237654,N,13550.3972205,E,1,18,0.62,73.1125,M,34.9852,M,,*68
$GPGGA,021135.00,3444.1240517,N,13550.3973930,E,4,18,0.80,74.9444,M,34.9852,M,0.0,0000*48
$GPGGA,021136.00,3444.1240511,N,13550.3973922,E,4,18,0.80,74.9483,M,34.9852,M,0.0,0000*45
$GPGGA,021138.00,3444.1240486,N,13550.3973903,E,4,18,0.80,74.9493,M,34.9852,M,0.0,0000*46
$GPGGA,021139.00,3444.1240505,N,13550.3973944,E,4,18,0.80,74.9470,M,34.9852,M,0.0,0000*43
$GPGGA,021140.00,3444.1240514,N,13550.3973942,E,4,18,0.80,74.9451,M,34.9852,M,0.0,0000*48
$GPGGA,021141.00,3444.1240517,N,13550.3973933,E,4,18,0.80,74.9475,M,34.9852,M,0.0,0000*4A
$GPGGA,021142.00,3444.1240556,N,13550.3973909,E,4,18,0.80,74.9466,M,34.9852,M,0.0,0000*47
$GPGGA,021143.00,3444.1240546,N,13550.3973924,E,4,18,0.80,74.9432,M,34.9852,M,0.0,0000*49
$GPGGA,021144.00,3444.1240560,N,13550.3973899,E,4,18,0.80,74.9443,M,34.9852,M,0.0,0000*4B
$GPGGA,021145.00,3444.1240553,N,13550.3973897,E,4,18,0.80,74.9430,M,34.9852,M,0.0,0000*40
$GPGGA,021148.00,3444.1237817,N,13550.3972132,E,1,18,0.62,73.0800,M,34.9852,M,,*61
$GPGGA,021147.00,3444.1240521,N,13550.3973894,E,4,18,0.80,74.9409,M,34.9852,M,0.0,0000*4E
$GPGGA,021148.00,3444.1240534,N,13550.3973912,E,4,18,0.80,74.9429,M,34.9852,M,0.0,0000*48
$GPGGA,021149.00,3444.1240701,N,13550.3973749,E,4,18,0.80,74.9418,M,34.9852,M,0.0,0000*4F
$GPGGA,021150.00,3444.1240290,N,13550.3974030,E,4,18,0.80,74.9685,M,34.9852,M,0.0,0000*42
$GPGGA,021151.00,3444.1239192,N,13550.3975074,E,4,18,0.80,75.0306,M,34.9852,M,0.0,0000*4B
$GPGGA,021152.00,3444.1238474,N,13550.3974639,E,4,18,0.80,75.0836,M,34.9852,M,0.0,0000*42
$GPGGA,021153.00,3444.1236951,N,13550.3976354,E,4,18,0.80,75.1200,M,34.9852,M,0.0,0000*45
$GPGGA,021154.00,3444.1234581,N,13550.3975185,E,4,18,0.80,75.1335,M,34.9852,M,0.0,0000*4B
$GPGGA,021155.00,3444.1234333,N,13550.3975512,E,4,18,0.80,75.2013,M,34.9852,M,0.0,0000*4B
$GPGGA,021156.00,3444.1234563,N,13550.3976117,E,4,18,0.80,75.1934,M,34.9852,M,0.0,0000*46
$GPGGA,021157.00,3444.1233264,N,13550.3975449,E,4,18,0.80,75.1820,M,34.9852,M,0.0,0000*49
$GPGGA,021158.00,3444.1231942,N,13550.3976841,E,4,18,0.80,75.0865,M,34.9853,M,0.0,0000*4D
$GPGGA,021159.00,3444.1231452,N,13550.3977254,E,4,18,0.80,74.9855,M,34.9853,M,0.0,0000*44
$GPGGA,021200.00,3444.1230949,N,13550.3977414,E,4,18,0.80,74.9277,M,34.9853,M,0.0,0000*45
$GPGGA,021201.00,3444.1230855,N,13550.3977662,E,4,18,0.80,74.9238,M,34.9853,M,0.0,0000*40
$GPGGA,021202.00,3444.1230438,N,13550.3978381,E,4,18,0.80,74.9411,M,34.9853,M,0.0,0000*4E
$GPGGA,021203.00,3444.1230906,N,13550.3979671,E,4,18,0.80,74.9373,M,34.9853,M,0.0,0000*47
$GPGGA,021204.00,3444.1230588,N,13550.3979697,E,4,18,0.80,74.9419,M,34.9853,M,0.0,0000*49
$GPGGA,021205.00,3444.1230520,N,13550.3979390,E,4,18,0.80,74.9450,M,34.9853,M,0.0,0000*45
$GPGGA,021206.00,3444.1230459,N,13550.3979595,E,4,18,0.80,74.9467,M,34.9853,M,0.0,0000*4E
$GPGGA,021207.00,3444.1230446,N,13550.3979429,E,4,18,0.80,74.9466,M,34.9853,M,0.0,0000*46
$GPGGA,021208.00,3444.1230484,N,13550.3979460,E,4,18,0.80,74.9456,M,34.9853,M,0.0,0000*49
$GPGGA,021209.00,3444.1230431,N,13550.3979436,E,4,18,0.80,74.9463,M,34.9853,M,0.0,0000*43
$GPGGA,021210.00,3444.1230452,N,13550.3979439,E,4,18,0.80,74.9435,M,34.9853,M,0.0,0000*42
$GPGGA,021211.00,3444.1230458,N,13550.3979360,E,4,18,0.80,74.9482,M,34.9853,M,0.0,0000*4E
$GPGGA,021212.00,3444.1230472,N,13550.3979379,E,4,18,0.80,74.9448,M,34.9853,M,0.0,0000*4B
$GPGGA,021213.00,3444.1230495,N,13550.3979381,E,4,18,0.80,74.9465,M,34.9853,M,0.0,0000*4B
