$GPGGA,021233.00,3444.1230510,N,13550.3979434,E,4,18,0.80,74.9424,M,34.9853,M,0.0,0000*49
$GPGGA,021234.00,3444.1230495,N,13550.3979420,E,4,18,0.80,74.9456,M,34.9853,M,0.0,0000*42
$GPGGA,021235.00,3444.1230519,N,13550.3979455,E,4,18,0.80,74.9459,M,34.9853,M,0.0,0000*4B
$GPGGA,021236.00,3444.1230503,N,13550.3979439,E,4,18,0.80,74.9445,M,34.9853,M,0.0,0000*44
$GPGGA,021237.00,3444.1230515,N,13550.3979451,E,4,18,0.80,74.9406,M,34.9853,M,0.0,0000*4B
$GPGGA,021238.00,3444.1230497,N,13550.3979432,E,4,18,0.80,74.9431,M,34.9853,M,0.0,0000*4E
$GPGGA,021239.00,3444.1230540,N,13550.3979465,E,4,18,0.80,74.9476,M,34.9853,M,0.0,0000*45
$GPGGA,021240.00,3444.1230494,N,13550.3979491,E,4,18,0.80,74.9452,M,34.9853,M,0.0,0000*4E
$GPGGA,021241.00,3444.1230472,N,13550.3979419,E,4,18,0.80,74.9480,M,34.9853,M,0.0,0000*48
$GPGGA,021242.00,3444.1230512,N,13550.3979447,E,4,18,0.80,74.9431,M,34.9853,M,0.0,0000*4D
$GPGGA,021243.00,3444.1230512,N,13550.3979471,E,4,18,0.80,74.9428,M,34.9853,M,0.0,0000*41
$GPGGA,021244.00,3444.1230476,N,13550.3979446,E,4,18,0.80,74.9442,M,34.9853,M,0.0,0000*4D
$GPGGA,021245.00,3444.1230478,N,13550.3979424,E,4,18,0.80,74.9423,M,34.9853,M,0.0,0000*41
$GPGGA,021246.00,3444.1230495,N,13550.3979472,E,4,18,0.80,74.9438,M,34.9853,M,0.0,0000*48
$GPGGA,021247.00,3444.1230508,N,13550.3979460,E,4,18,0.80,74.9453,M,34.9853,M,0.0,0000*42
$GPGGA,021248.00,3444.1230477,N,13550.3979391,E,4,18,0.81,74.9466,M,34.9853,M,0.0,0000*4A
$GPGGA,021249.00,3444.1230481,N,13550.3979403,E,4,18,0.81,74.9463,M,34.9853,M,0.0,0000*4B
$GPGGA,021250.00,3444.1230488,N,13550.3979465,E,4,18,0.81,74.9455,M,34.9853,M,0.0,0000*4F
$GPGGA,021251.00,3444.1230705,N,13550.3979260,E,4,18,0.81,74.9452,M,34.9853,M,0.0,0000*4C
$GPGGA,021252.00,3444.1230665,N,13550.3979482,E,4,18,0.81,74.9391,M,34.9853,M,0.0,0000*4A
$GPGGA,021253.00,3444.1230850,N,13550.3979429,E,4,18,0.81,74.9416,M,34.9853,M,0.0,0000*4A
$GPGGA,021254.00,3444.1230753,N,13550.3979356,E,4,18,0.81,74.9407,M,34.9853,M,0.0,0000*4E
$GPGGA,021255.00,3444.1230875,N,13550.3979386,E,4,18,0.81,74.9422,M,34.9853,M,0.0,0000*4E
$GPGGA,021256.00,3444.1230991,N,13550.3979271,E,4,18,0.81,74.9410,M,34.9853,M,0.0,0000*4E
$GPGGA,021259.00,3444.1228126,N,13550.3978032,E,1,18,0.62,73.1339,M,34.9853,M,,*6D
$GPGGA,021258.00,3444.1230650,N,13550.3979566,E,4,18,0.81,74.9418,M,34.9853,M,0.0,0000*4B
$GPGGA,021259.00,3444.1230697,N,13550.3979629,E,4,18,0.81,74.9435,M,34.9853,M,0.0,0000*46
$GPGGA,021300.00,3444.1230503,N,13550.3979485,E,4,18,0.81,74.9445,M,34.9853,M,0.0,0000*46
$GPGGA,021301.00,3444.1230719,N,13550.3978991,E,4,18,0.81,74.9418,M,34.9853,M,0.0,0000*4F
$GPGGA,021302.00,3444.1230710,N,13550.3978951,E,4,18,0.81,74.9403,M,34.9853,M,0.0,0000*43
$GPGGA,021303.00,3444.1230795,N,13550.3979184,E,4,18,0.81,74.9444,M,34.9853,M,0.0,0000*4D
$GPGGA,021304.00,3444.1230979,N,13550.3979525,E,4,18,0.81,74.9430,M,34.9853,M,0.0,0000*4A
$GPGGA,021305.00,3444.1230305,N,13550.3979861,E,4,18,0.81,74.9364,M,34.9853,M,0.0,0000*41
$GPGGA,021308.00,3444.1227821,N,13550.3977717,E,1,18,0.62,73.1210,M,34.9853,M,,*6C
$GPGGA,021307.00,3444.1230476,N,13550.3979797,E,4,18,0.81,74.9483,M,34.9853,M,0.0,0000*48
$GPGGA,021308.00,3444.1230434,N,13550.3979412,E,4,18,0.81,74.9452,M,34.9853,M,0.0,0000*43
$GPGGA,021309.00,3444.1230752,N,13550.3979363,E,4,18,0.81,74.9418,M,34.9853,M,0.0,0000*4E
$GPGGA,021310.00,3444.1231339,N,13550.3979528,E,4,18,0.81,74.9412,M,34.9853,M,0.0,0000*4D
$GPGGA,021311.00,3444.1230813,N,13550.3979929,E,4,18,0.81,74.9457,M,34.9853,M,0.0,0000*42
$GPGGA,021312.00,3444.1230700,N,13550.3979828,E,4,18,0.81,74.9425,M,34.9853,M,0.0,0000*49
$GPGGA,021313.00,3444.1230607,N,13550.3979552,E,4,18,0.81,74.9424,M,34.9853,M,0.0,0000*4F
$GPGGA,021314.00,3444.1230418,N,13550.3979865,E,4,18,0.81,74.9433,M,34.9853,M,0.0,0000*4B
$GPGGA,021315.00,3444.1230086,N,13550.3979893,E,4,18,0.81,74.9416,M,34.9853,M,0.0,0000*47
$GPGGA,021316.00,3444.1230274,N,13550.3980206,E,4,18,0.81,74.9436,M,34.9853,M,0.0,0000*49
$GPGGA,021317.00,3444.1230975,N,13550.3979490,E,4,18,0.81,74.9428,M,34.9853,M,0.0,0000*42
$GPGGA,021318.00,3444.1231056,N,13550.3979518,E,4,18,0.81,74.9460,M,34.9853,M,0.0,0000*49
$GPGGA,021321.00,3444.1228277,N,13550.3978133,E,1,18,0.62,73.2511,M,34.9853,M,,*6B
$GPGGA,021322.00,3444.1227678,N,13550.3979605,E,1,18,0.62,73.2202,M,34.9853,M,,*6A
$GPGGA,021321.00,3444.1230789,N,13550.3979811,E,4,18,0.81,75.0765,M,34.9853,M,0.0,0000*4D
$GPGGA,021322.00,3444.1230208,N,13550.3981311,E,4,18,0.81,75.0396,M,34.9853,M,0.0,0000*46
$GPGGA,021323.00,3444.1232398,N,13550.3983101,E,4,18,0.81,75.0586,M,34.9853,M,0.0,0000*4B
$GPGGA,021324.00,3444.1235188,N,13550.3991220,E,4,18,0.81,75.0208,M,34.9853,M,0.0,0000*4A
$GPGGA,021325.00,3444.1235795,N,13550.3998179,E,4,17,0.81,75.0655,M,34.9853,M,0.0,0000*44
$GPGGA,021326.00,3444.1236793,N,13550.4005936,E,4,17,0.83,75.1271,M,34.9853,M,0.0,0000*4A
$GPGGA,021327.00,3444.1237124,N,13550.4013968,E,4,16,0.83,75.0550,M,34.9854,M,0.0,0000*4F
$GPGGA,021328.00,3444.1237071,N,13550.4019924,E,4,16,0.84,74.9409,M,34.9854,M,0.0,0000*41
$GPGGA,021329.00,3444.1239027,N,13550.4024908,E,4,15,0.84,75.0453,M,34.9854,M,0.0,0000*49
$GPGGA,021330.00,3444.1240450,N,13550.4026463,E,4,16,0.88,75.0263,M,34.9854,M,0.0,0000*43
$GPGGA,021331.00,3444.1240409,N,13550.4026639,E,4,16,0.87,75.0081,M,34.9854,M,0.0,0000*42
$GPGGA,021334.00,3444.1237430,N,13550.4024112,E,1,17,0.67,73.0398,M,34.9854,M,,*68
$GPGGA,021333.00,3444.1239874,N,13550.4025732,E,4,16,0.92,74.9788,M,34.9854,M,0.0,0000*43
$GPGGA,021334.00,3444.1240093,N,13550.4025767,E,4,17,0.87,74.9773,M,34.9854,M,0.0,0000*4A
$GPGGA,021335.00,3444.1239778,N,13550.4025872,E,4,17,0.87,74.9781,M,34.9854,M,0.0,0000*41
$GPGGA,021336.00,3444.1239306,N,13550.4026028,E,4,17,0.85,74.9792,M,34.9854,M,0.0,0000*4B
$GPGGA,021337.00,3444.1239726,N,13550.4026366,E,4,17,0.82,74.9858,M,34.9854,M,0.0,0000*4B
$GPGGA,021338.00,3444.1239704,N,13550.4026109,E,4,17,0.82,74.9817,M,34.9854,M,0.0,0000*44
$GPGGA,021339.00,3444.1239680,N,13550.4026193,E,4,17,0.82,74.9791,M,34.9854,M,0.0,0000*4A
$GPGGA,021340.00,3444.1239705,N,13550.4026173,E,4,17,0.82,74.9797,M,34.9854,M,0.0,0000*40
$GPGGA,021341.00,3444.1239680,N,13550.4026182,E,4,17,0.82,74.9823,M,34.9854,M,0.0,0000*43
$GPGGA,021342.00,3444.1239661,N,13550.4026164,E,4,17,0.82,74.9819,M,34.9854,M,0.0,0000*4E
$GPGGA,021343.00,3444.1239669,N,13550.4026193,E,4,17,0.82,74.9794,M,34.9854,M,0.0,0000*45
$GPGGA,021344.00,3444.1239662,N,13550.4026184,E,4,17,0.82,74.9820,M,34.9854,M,0.0,0000*4F
$GPGGA,021345.00,3444.1239651,N,13550.4026185,E,4,17,0.82,74.9809,M,34.9854,M,0.0,0000*44
$GPGGA,021346.00,3444.1239654,N,13550.4026149,E,4,17,0.82,74.9854,M,34.9854,M,0.0,0000*4A
$GPGGA,021347.00,3444.1239658,N,13550.4026203,E,4,17,0.82,74.9866,M,34.9854,M,0.0,0000*4B
$GPGGA,021348.00,3444.1239684,N,13550.4026236,E,4,17,0.82,74.9775,M,34.9854,M,0.0,0000*4E
$GPGGA,021349.00,3444.1239696,N,13550.4026316,E,4,17,0.82,74.9796,M,34.9854,M,0.0,0000*42
